{
"type": "FeatureCollection",                                                                          
"features": [
{ "type": "Feature", "properties": { "type" : "earthcache", "GEOTOPNAME" : "Großer Pfahl bei Viechtach", "NUMBER" : 1, "NAME": "~Der Große Pfahl~ – Bavarian’s Geotope #1", "CODE" : "GC1G4MH" }, "geometry": { "type": "Point", "coordinates": [ 12.865567 , 49.08025 ] } },
{ "type": "Feature", "properties": { "type" : "earthcache", "GEOTOPNAME" : "Gletscherschliff bei Fischbach", "NUMBER" : 2, "NAME": "Der Gletscherschliff im Inntal", "CODE" : "GC1PN2K"}, "geometry": { "type": "Point", "coordinates": [ 12.15125 , 47.7102 ] } },
{ "type": "Feature", "properties": { "type" : "earthcache", "GEOTOPNAME" : "Burgstein bei Dollnstein", "NUMBER" : 3, "NAME": "Burgstein bei Dollnstein", "CODE" : "GC1QN4N"}, "geometry": { "type": "Point", "coordinates": [ 11.0934 , 48.867367 ] } },
{ "type": "Feature", "properties": { "type" : "earthcache", "GEOTOPNAME" : "Burgberg Falkenberg", "NUMBER" : 4, "NAME": "Burg Falkenberg - Falkenberger Granit", "CODE" : "GC1YZMV"}, "geometry": { "type": "Point", "coordinates": [ 12.224733 , 49.858783 ] } },
{ "type": "Feature", "properties": { "type" : "earthcache", "GEOTOPNAME" : "Diabasbruch am Galgenberg", "NUMBER" : 5, "NAME": "Diabasbruch am Galgenberg", "CODE" : "GC22FVN"}, "geometry": { "type": "Point", "coordinates": [ 11.5432 , 50.269967 ] } },
{ "type": "Feature", "properties": { "type" : "earthcache", "GEOTOPNAME" : "Ehemaliger Steinbruch im Pingartener Porphyr", "NUMBER" : 6, "NAME": "Pingartener Porphyr", "CODE" : "GC1JMHD"}, "geometry": { "type": "Point", "coordinates": [ 12.327283 , 49.316317 ] } },
{ "type": "Feature", "properties": { "type" : "earthcache", "GEOTOPNAME" : "Basaltbruch am Lindenstumpf", "NUMBER" : 7, "NAME": "Geotop Lindenstumpf", "CODE" : "GC195QR"}, "geometry": { "type": "Point", "coordinates": [ 9.860633 , 50.278883 ] } },
{ "type": "Feature", "properties": { "type" : "earthcache", "GEOTOPNAME" : "Lechfall und Klamm bei Füssen", "NUMBER" : 8, "NAME": "Geotop ~Lechfall~", "CODE" : "GC206D0"}, "geometry": { "type": "Point", "coordinates": [ 10.69515 , 47.562083 ] } },
{ "type": "Feature", "properties": { "type" : "earthcache", "GEOTOPNAME" : "Steinbruch Aumühle", "NUMBER" : 9, "NAME": "Steinbruch Aumühle (The Ries Impact)", "CODE" : "GC30GG5"}, "geometry": { "type": "Point", "coordinates": [ 10.6294 , 48.96985 ] } },
{ "type": "Feature", "properties": { "type" : "earthcache", "GEOTOPNAME" : "Gipsbruch Endsee", "NUMBER" : 10, "NAME": "Gipsbruch Endsee", "CODE" : "GC2C1F3"}, "geometry": { "type": "Point", "coordinates": [ 10.24595 , 49.444817 ] } },
{ "type": "Feature", "properties": { "type" : "earthcache", "GEOTOPNAME" : "Sandsteinfelsen Nürnberger Kaiserburg", "NUMBER" : 11, "NAME": "Bayerns schönste Geotope Nr. 11 / Lovely Geotope", "CODE" : "GC1WRE9"}, "geometry": { "type": "Point", "coordinates": [ 11.07705 , 49.4575 ] } },
{ "type": "Feature", "properties": { "type" : "earthcache", "GEOTOPNAME" : "Frickenhäuser See", "NUMBER" : 12, "NAME": "Frickenhäuser See", "CODE" : "GC1RHZT"}, "geometry": { "type": "Point", "coordinates": [ 10.235883 , 50.40305 ] } },
{ "type": "Feature", "properties": { "type" : "earthcache", "GEOTOPNAME" : "Weltenburger Enge", "NUMBER" : 13, "NAME": "Weltenburger Enge", "CODE" : "GC1PQRD"}, "geometry": { "type": "Point", "coordinates": [ 11.830333 , 48.898667 ] } },
{ "type": "Feature", "properties": { "type" : "earthcache", "GEOTOPNAME" : "Marmorsteinbruch Horwagen", "NUMBER" : 14, "NAME": "Marmorsteinbruch Horwagen", "CODE" : "GC21N9Z"}, "geometry": { "type": "Point", "coordinates": [ 11.647483 , 50.33585 ] } },
{ "type": "Feature", "properties": { "type" : "earthcache", "GEOTOPNAME" : "Findling Dengelstein", "NUMBER" : 15, "NAME": "Findling / Erratic block Dengelstein", "CODE" : "GC20X0Y"}, "geometry": { "type": "Point", "coordinates": [ 10.406517 , 47.71045 ] } },
{ "type": "Feature", "properties": { "type" : "earthcache", "GEOTOPNAME" : "Partnachklamm", "NUMBER" : 16, "NAME": "Die Partnachklamm / The Partnach Gorge", "CODE" : "GC1WYTT"}, "geometry": { "type": "Point", "coordinates": [ 11.12016667 , 47.46716667 ] } },
{ "type": "Feature", "properties": { "type" : "earthcache", "GEOTOPNAME" : "Silberberg Bodenmais", "NUMBER" : 17, "NAME": "Geotop Silberberg", "CODE" : "GC23JPQ"}, "geometry": { "type": "Point", "coordinates": [ 13.124767 , 49.05725 ] } },
{ "type": "Feature", "properties": { "type" : "earthcache", "GEOTOPNAME" : "Klettergarten Baierbrunn", "NUMBER" : 18, "NAME": "Kletterwand Baierbrunn", "CODE" : "GC20FN9"}, "geometry": { "type": "Point", "coordinates": [ 11.499467 , 48.028767 ] } },
{ "type": "Feature", "properties": { "type" : "earthcache", "GEOTOPNAME" : "Wachsender Felsen von Usterling", "NUMBER" : 19, "NAME": "The Growing Rock of Usterling", "CODE" : "GC1RK2W"}, "geometry": { "type": "Point", "coordinates": [ 12.649167 , 48.66305 ] } },
{ "type": "Feature", "properties": { "type" : "earthcache", "GEOTOPNAME" : "Basaltkegel Hoher Parkstein", "NUMBER" : 20, "NAME": "Hoher Parkstein", "CODE" : "GC1WK3T"}, "geometry": { "type": "Point", "coordinates": [ 12.07045 , 49.73115 ] } },
{ "type": "Feature", "properties": { "type" : "earthcache", "GEOTOPNAME" : "Oertels Dachschieferbruch", "NUMBER" : 21, "NAME": "Oertels Dachschieferbruch ", "CODE" : "GC1RY4Q"}, "geometry": { "type": "Point", "coordinates": [ 11.37285 , 50.48305 ] } },
{ "type": "Feature", "properties": { "type" : "earthcache", "GEOTOPNAME" : "Schwarzachschlucht", "NUMBER" : 22, "NAME": "Die Schwarzachschlucht", "CODE" : "GC1Q1V4"}, "geometry": { "type": "Point", "coordinates": [ 11.218417 , 49.35145 ] } },
{ "type": "Feature", "properties": { "type" : "earthcache", "GEOTOPNAME" : "Kupferbergwerk Wilhelmine", "NUMBER" : 23, "NAME": "Schöne Wilhelmine", "CODE" : "GC1X32T"}, "geometry": { "type": "Point", "coordinates": [ 9.272583 , 50.068983 ] } },
{ "type": "Feature", "properties": { "type" : "earthcache", "GEOTOPNAME" : "Scheidegger Wasserfälle", "NUMBER" : 24, "NAME": "Die Scheidegger Wasserfälle", "CODE" : "GC1YTY7"}, "geometry": { "type": "Point", "coordinates": [ 9.84135 , 47.59105 ] } },
{ "type": "Feature", "properties": { "type" : "earthcache", "GEOTOPNAME" : "Steinerne Agnes", "NUMBER" : 25, "NAME": "Steinerne Agnes Stone/Petrified Agnes", "CODE" : "GC1RCCR"}, "geometry": { "type": "Point", "coordinates": [ 12.908983 , 47.686617 ] } },
{ "type": "Feature", "properties": { "type" : "earthcache", "GEOTOPNAME" : "Buchberger Leite am Bayerischen Pfahl", "NUMBER" : 26, "NAME": "Buchberger Leite - Ringelaier Hängebrücke & Pfahl", "CODE" : "GC1WW3G"}, "geometry": { "type": "Point", "coordinates": [ 13.487917 , 48.809533 ] } },
{ "type": "Feature", "properties": { "type" : "earthcache", "GEOTOPNAME" : "Luisenburg-Felsenlabyrinth", "NUMBER" : 27, "NAME": "Felsenlabyrinth Luisenburg", "CODE" : "GC1ZTX9"}, "geometry": { "type": "Point", "coordinates": [ 11.991417 , 50.011967 ] } },
{ "type": "Feature", "properties": { "type" : "earthcache", "GEOTOPNAME" : "Hesselberg", "NUMBER" : 28, "NAME": "Mittelfranken's Höchster", "CODE" : "GC4YAT2"}, "geometry": { "type": "Point", "coordinates": [ 10.52805 , 49.067817 ] } },
{ "type": "Feature", "properties": { "type" : "earthcache", "GEOTOPNAME" : "Felsburg Tüchersfeld", "NUMBER" : 29, "NAME": "Felsburg Tüchersfeld", "CODE" : "GC22ZAG"}, "geometry": { "type": "Point", "coordinates": [ 11.361783 , 49.784733 ] } },
{ "type": "Feature", "properties": { "type" : "earthcache", "GEOTOPNAME" : "Impaktgesteine Wengenhausen", "NUMBER" : 30, "NAME": "Impaktdiamanten", "CODE" : "GC4QTR1"}, "geometry": { "type": "Point", "coordinates": [ 10.4628 , 48.911033 ] } },
{ "type": "Feature", "properties": { "type" : "earthcache", "GEOTOPNAME" : "Breitachklamm", "NUMBER" : 31, "NAME": "Der grosse Zwing", "CODE" : "GC1VKGD"}, "geometry": { "type": "Point", "coordinates": [ 10.232733 , 47.394283 ] } },
{ "type": "Feature", "properties": { "type" : "earthcache", "GEOTOPNAME" : "Blockmeer am Lusen", "NUMBER" : 32, "NAME": "Das Blockmeer am Lusengipfel", "CODE" : "GC2E38V"}, "geometry": { "type": "Point", "coordinates": [ 13.505467 , 48.939433 ] } },
{ "type": "Feature", "properties": { "type" : "earthcache", "GEOTOPNAME" : "Eiszerfallslandschaft Osterseen", "NUMBER" : 33, "NAME": "Osterseen", "CODE" : "GC4CZYE"}, "geometry": { "type": "Point", "coordinates": [ 11.31425 , 47.77275 ] } },
{ "type": "Feature", "properties": { "type" : "earthcache", "GEOTOPNAME" : "Karlsgraben", "NUMBER" : 34, "NAME": "Karlsgraben", "CODE" : "GC1XGJQ"}, "geometry": { "type": "Point", "coordinates": [ 10.922167 , 48.983967 ] } },
{ "type": "Feature", "properties": { "type" : "earthcache", "GEOTOPNAME" : "Muschelkalkprofil Kalbenstein", "NUMBER" : 35, "NAME": "Muschelkalkprofil Kalbenstein", "CODE" : "GC1XDYT"}, "geometry": { "type": "Point", "coordinates": [ 9.762683 , 49.990267 ] } },
{ "type": "Feature", "properties": { "type" : "earthcache", "GEOTOPNAME" : "Kreuzberg in Pleystein", "NUMBER" : 36, "NAME": "Pleystein", "CODE" : "GC16PRM"}, "geometry": { "type": "Point", "coordinates": [ 12.41175 , 49.64625 ] } },
{ "type": "Feature", "properties": { "type" : "earthcache", "GEOTOPNAME" : "Toteisloch Wolfsgrube", "NUMBER" : 37, "NAME": "Toteisloch Wolfsgrube", "CODE" : "GC39YZ7"}, "geometry": { "type": "Point", "coordinates": [ 11.1695 , 48.127233 ] } },
{ "type": "Feature", "properties": { "type" : "earthcache", "GEOTOPNAME" : "Ofnethöhlen", "NUMBER" : 38, "NAME": "Geotop Nr. 38 Ofnethöhlen", "CODE" : "GC1ZTH4"}, "geometry": { "type": "Point", "coordinates": [ 10.450367 , 48.81845 ] } },
{ "type": "Feature", "properties": { "type" : "earthcache", "GEOTOPNAME" : "Eklogit am Weißenstein", "NUMBER" : 39, "NAME": "Eklogit am Weißenstein", "CODE" : "GC22FTR"}, "geometry": { "type": "Point", "coordinates": [ 11.690283 , 50.129967 ] } },
{ "type": "Feature", "properties": { "type" : "earthcache", "GEOTOPNAME" : "Gipskarstquelle Bodenloses Loch", "NUMBER" : 40, "NAME": "Gipskarstquelle Bodenloses Loch", "CODE" : "GC2D3Y8"}, "geometry": { "type": "Point", "coordinates": [ 10.195867 , 49.287417 ] } },
{ "type": "Feature", "properties": { "type" : "earthcache", "GEOTOPNAME" : "Steinerne Frau am Walberla", "NUMBER" : 41, "NAME": "Steinerne Frau am Walberla", "CODE" : "GC1T5HG"}, "geometry": { "type": "Point", "coordinates": [ 11.149833 , 49.722267 ] } },
{ "type": "Feature", "properties": { "type" : "earthcache", "GEOTOPNAME" : "Findling von Steinwies", "NUMBER" : 42, "NAME": "Findling von Steinwies - Glacial Erratic Boulder", "CODE" : "GC1PPP3"}, "geometry": { "type": "Point", "coordinates": [ 11.935383 , 47.80965 ] } },
{ "type": "Feature", "properties": { "type" : "earthcache", "GEOTOPNAME" : "Teufelsküche Obergünzburg", "NUMBER" : 43, "NAME": "Teufelsküche / Hell's Kitchen Obergünzburg", "CODE" : "GC20CRE"}, "geometry": { "type": "Point", "coordinates": [ 10.414867 , 47.87405 ] } },
{ "type": "Feature", "properties": { "type" : "earthcache", "GEOTOPNAME" : "Burgruine Rotenhan", "NUMBER" : 44, "NAME": "Rotenhan", "CODE" : "GC1VNWA"}, "geometry": { "type": "Point", "coordinates": [ 10.7917 , 50.11495 ] } },
{ "type": "Feature", "properties": { "type" : "earthcache", "GEOTOPNAME" : "Bodenmühlwand", "NUMBER" : 45, "NAME": "Bodenmühlwand", "CODE" : "GC1A3AG"}, "geometry": { "type": "Point", "coordinates": [ 11.616667 , 49.912083 ] } },
{ "type": "Feature", "properties": { "type" : "earthcache", "GEOTOPNAME" : "Zauberwald Ramsau", "NUMBER" : 46, "NAME": "The Magic Forest", "CODE" : "GC1Q1N2"}, "geometry": { "type": "Point", "coordinates": [ 12.858667 , 47.60445 ] } },
{ "type": "Feature", "properties": { "type" : "earthcache", "GEOTOPNAME" : "Schwarzes Moor", "NUMBER" : 47, "NAME": "The Black Moor", "CODE" : "GC1R1BN"}, "geometry": { "type": "Point", "coordinates": [ 10.068 , 50.515 ] } },
{ "type": "Feature", "properties": { "type" : "earthcache", "GEOTOPNAME" : "Molasseprofil Eistobel", "NUMBER" : 48, "NAME": "Eistobel", "CODE" : "GC20DTJ"}, "geometry": { "type": "Point", "coordinates": [ 10.0259 , 47.641617 ] } },
{ "type": "Feature", "properties": { "type" : "earthcache", "GEOTOPNAME" : "Großer Lochstein", "NUMBER" : 49, "NAME": "Großer Lochstein", "CODE" : "GC21N76"}, "geometry": { "type": "Point", "coordinates": [ 11.524133 , 49.714767 ] } },
{ "type": "Feature", "properties": { "type" : "earthcache", "GEOTOPNAME" : "Serpentinit-Härtling am Föhrenbühl", "NUMBER" : 50, "NAME": "Föhrenbühl", "CODE" : "GC24KFQ"}, "geometry": { "type": "Point", "coordinates": [ 12.0316 , 49.856933 ] } },
{ "type": "Feature", "properties": { "type" : "earthcache", "GEOTOPNAME" : "Malmschichten am Arzberg", "NUMBER" : 51, "NAME": "Malmschichten am Arzberg", "CODE" : "GC1W9VV"}, "geometry": { "type": "Point", "coordinates": [ 11.538883 , 49.019367 ] } },
{ "type": "Feature", "properties": { "type" : "earthcache", "GEOTOPNAME" : "Mühlsteinbruch Hinterhör", "NUMBER" : 52, "NAME": "Mühlsteinbruch / Millstone Quarry Hinterhör", "CODE" : "GC218GN"}, "geometry": { "type": "Point", "coordinates": [ 12.1565 , 47.778233 ] } },
{ "type": "Feature", "properties": { "type" : "earthcache", "GEOTOPNAME" : "Blockstrom Kaser Steinstuben", "NUMBER" : 53, "NAME": "Kaser Steinstuben / Kaser Stone Rooms", "CODE" : "GC21VP6"}, "geometry": { "type": "Point", "coordinates": [ 12.999317 , 48.376467 ] } },
{ "type": "Feature", "properties": { "type" : "earthcache", "GEOTOPNAME" : "Drei-Brüder-Felsen", "NUMBER" : 54, "NAME": "Drei Brüder Felsen", "CODE" : "GC21N77"}, "geometry": { "type": "Point", "coordinates": [ 11.871933 , 50.0693 ] } },
{ "type": "Feature", "properties": { "type" : "earthcache", "GEOTOPNAME" : "Peitinger Pechkohle", "NUMBER" : 55, "NAME": "Pechkohle/Bituminous coal - Peiting", "CODE" : "GC1Y451" }, "geometry": { "type": "Point", "coordinates": [ 10.955133 , 47.788 ] } },
{ "type": "Feature", "properties": { "type" : "earthcache", "GEOTOPNAME" : "Peitinger Pechkohle", "NUMBER" : 55, "NAME": "Peitinger Pechkohle", "CODE" : "GC1Y4B4", "archived" : true }, "geometry": { "type": "Point", "coordinates": [ 10.955033 , 47.787883 ] } },
{ "type": "Feature", "properties": { "type" : "earthcache", "GEOTOPNAME" : "Schutzfelsen Pentling", "NUMBER" : 56, "NAME": "Schutzfelsen Pentling", "CODE" : "GC1YG4X" }, "geometry": { "type": "Point", "coordinates": [ 12.046333 , 48.992133 ] } },
{ "type": "Feature", "properties": { "type" : "earthcache", "GEOTOPNAME" : "Schichtstufen am Schwanberg", "NUMBER" : 57, "NAME": "Keuper-Schichtstufe am Schwanberg", "CODE" : "GC1Y2TF"}, "geometry": { "type": "Point", "coordinates": [ 10.274083 , 49.71475 ] } },
{ "type": "Feature", "properties": { "type" : "earthcache", "GEOTOPNAME" : "Granite am Dreisessel", "NUMBER" : 58, "NAME": "Verwitterung am Dreisesselfels", "CODE" : "GC24CHQ"}, "geometry": { "type": "Point", "coordinates": [ 13.805833 , 48.779867 ] } },
{ "type": "Feature", "properties": { "type" : "earthcache", "GEOTOPNAME" : "Glimmerschiefer am Osser", "NUMBER" : 59, "NAME": "Glimmerschiefer am Osser", "CODE" : "GC1YTWR"}, "geometry": { "type": "Point", "coordinates": [ 13.109683 , 49.203017 ] } },
{ "type": "Feature", "properties": { "type" : "earthcache", "GEOTOPNAME" : "Wellheimer Trockental", "NUMBER" : 60, "NAME": "Wellheimer Trockental", "CODE" : "GC234MT"}, "geometry": { "type": "Point", "coordinates": [ 11.08415 , 48.82885 ] } },
{ "type": "Feature", "properties": { "type" : "earthcache", "GEOTOPNAME" : "Höhlenruine Riesenburg", "NUMBER" : 61, "NAME": "Versturzhöhle Riesenburg", "CODE" : "GC1YTTV"}, "geometry": { "type": "Point", "coordinates": [ 11.298183 , 49.803283 ] } },
{ "type": "Feature", "properties": { "type" : "earthcache", "GEOTOPNAME" : "Zwölf-Apostel-Felsen", "NUMBER" : 62, "NAME": "12 Apostel im Altmühltal", "CODE" : "GC1RZK2"}, "geometry": { "type": "Point", "coordinates": [ 11.007617 , 48.895317 ] } },
{ "type": "Feature", "properties": { "type" : "earthcache", "GEOTOPNAME" : "Riesseekalke Hainsfarth", "NUMBER" : 63, "NAME": "Bayerns Geotope 63 - Riesseekalke Hainsfarth", "CODE" : "GC22YEM"}, "geometry": { "type": "Point", "coordinates": [ 10.632467 , 48.955233 ] } },
{ "type": "Feature", "properties": { "type" : "earthcache", "GEOTOPNAME" : "Steinachklamm", "NUMBER" : 64, "NAME": "Geotop Nr. 64 Steinachklamm", "CODE" : "GC22M5W"}, "geometry": { "type": "Point", "coordinates": [ 11.556383 , 50.19355 ] } },
{ "type": "Feature", "properties": { "type" : "earthcache", "GEOTOPNAME" : "Kaolingruben bei Hirschau-Schnaittenbach", "NUMBER" : 65, "NAME": "Kaolingruben", "CODE" : "GC1VXKT"}, "geometry": { "type": "Point", "coordinates": [ 11.95325 , 49.535483 ] } },
{ "type": "Feature", "properties": { "type" : "earthcache", "GEOTOPNAME" : "Tertiärwelt Aubenham", "NUMBER" : 66, "NAME": "Die tertiärwelten Aubenham", "CODE" : "GC24G1N"}, "geometry": { "type": "Point", "coordinates": [ 12.381783 , 48.305933 ] } },
{ "type": "Feature", "properties": { "type" : "earthcache", "GEOTOPNAME" : "Stockheimer Steinkohle", "NUMBER" : 67, "NAME": "Stockheimer Steinkohle", "CODE" : "GC22C8Q"}, "geometry": { "type": "Point", "coordinates": [ 11.272083 , 50.31095 ] } },
{ "type": "Feature", "properties": { "type" : "earthcache", "GEOTOPNAME" : "Buckelwiesen bei Mittenwald", "NUMBER" : 68, "NAME": "Buckelwiesen bei Mittenwald", "CODE" : "GC25FHE"}, "geometry": { "type": "Point", "coordinates": [ 11.26955 , 47.470733 ] } },
{ "type": "Feature", "properties": { "type" : "earthcache", "GEOTOPNAME" : "Doggerfelswand Niederhofen", "NUMBER" : 69, "NAME": "Doggerfelswand Niederhofen", "CODE" : "GC1WAMG"}, "geometry": { "type": "Point", "coordinates": [ 11.578 , 49.292167 ] } },
{ "type": "Feature", "properties": { "type" : "earthcache", "GEOTOPNAME" : "Flysch im Röthenbachtal", "NUMBER" : 70, "NAME": "Flysch im Röthenbachtal", "CODE" : "GC31HHE"}, "geometry": { "type": "Point", "coordinates": [ 10.859233 , 47.6122 ] } },
{ "type": "Feature", "properties": { "type" : "earthcache", "GEOTOPNAME" : "Fossilfundstelle Solnhofener Plattenkalke", "NUMBER" : 71, "NAME": "Solnhofener Plattenkalk", "CODE" : "GC1QD69"}, "geometry": { "type": "Point", "coordinates": [ 10.961417 , 48.88935 ] } },
{ "type": "Feature", "properties": { "type" : "earthcache", "GEOTOPNAME" : "Volkacher Mainschleife", "NUMBER" : 72, "NAME": "Volkacher Mainschleife", "CODE" : "GC1RY5A"}, "geometry": { "type": "Point", "coordinates": [ 10.182967 , 49.86665 ] } },
{ "type": "Feature", "properties": { "type" : "earthcache", "GEOTOPNAME" : "Schlossberg Flossenbürg", "NUMBER" : 73, "NAME": "Flossenbürger Granit", "CODE" : "GC20EJH"}, "geometry": { "type": "Point", "coordinates": [ 12.34265 , 49.734033 ] } },
{ "type": "Feature", "properties": { "type" : "earthcache", "GEOTOPNAME" : "Juraprofil Staffelberg", "NUMBER" : 74, "NAME": "Juraprofil Staffelberg", "CODE" : "GC218H2"}, "geometry": { "type": "Point", "coordinates": [ 11.026167 , 50.092917 ] } },
{ "type": "Feature", "properties": { "type" : "earthcache", "GEOTOPNAME" : "Kreidetransgression Obertrübenbach", "NUMBER" : 75, "NAME": "Geotop Obertrübenbach", "CODE" : "GC1YRNW"}, "geometry": { "type": "Point", "coordinates": [ 12.5466 , 49.164967 ] } },
{ "type": "Feature", "properties": { "type" : "earthcache", "GEOTOPNAME" : "Ammergauer Wetzsteinbrüche", "NUMBER" : 76, "NAME": "Schleifmühlklamm mit ehemaligen Wetzsteinbrüchen", "CODE" : "GC57547"}, "geometry": { "type": "Point", "coordinates": [ 11.016583 , 47.606283 ] } },
{ "type": "Feature", "properties": { "type" : "earthcache", "GEOTOPNAME" : "Sanddüne Seeholz Abensberg", "NUMBER" : 78, "NAME": "Geotop Sanddüne", "CODE" : "GC20FTW"}, "geometry": { "type": "Point", "coordinates": [ 11.884633 , 48.815 ] } },
{ "type": "Feature", "properties": { "type" : "earthcache", "GEOTOPNAME" : "Ruhpoldinger Marmor", "NUMBER" : 79, "NAME": "Ruhpoldinger Marmor", "CODE" : "GC1QC2C"}, "geometry": { "type": "Point", "coordinates": [ 12.627667 , 47.749 ] } },
{ "type": "Feature", "properties": { "type" : "earthcache", "GEOTOPNAME" : "Gneis am Hochfels", "NUMBER" : 80, "NAME": "Gneis am Hochfels", "CODE" : "GC1YZFJ"}, "geometry": { "type": "Point", "coordinates": [ 12.616917 , 49.506917 ] } },
{ "type": "Feature", "properties": { "type" : "earthcache", "GEOTOPNAME" : "Röslauschlucht Gsteinigt", "NUMBER" : 81, "NAME": "Earthcache: G'steinigt", "CODE" : "GC22YK9"}, "geometry": { "type": "Point", "coordinates": [ 12.173333 , 50.050333 ] } },
{ "type": "Feature", "properties": { "type" : "earthcache", "GEOTOPNAME" : "Geologische Orgeln Oberschroffen", "NUMBER" : 82, "NAME": "Geological Organ Pipes", "CODE" : "GC1XQDJ"}, "geometry": { "type": "Point", "coordinates": [ 12.64675 , 48.1539 ] } },
{ "type": "Feature", "properties": { "type" : "earthcache", "GEOTOPNAME" : "Quaderkalkbruch Kleinochsenfurt", "NUMBER" : 83, "NAME": "Quaderkalkbruch Kleinochsenfurt", "CODE" : "GC29KTT"}, "geometry": { "type": "Point", "coordinates": [ 10.039833 , 49.681583 ] } },
{ "type": "Feature", "properties": { "type" : "earthcache", "GEOTOPNAME" : "Vulkankrater Gebirgsstein", "NUMBER" : 84, "NAME": "Vulkankrater Gebirgsstein", "CODE" : "GC20FP4"}, "geometry": { "type": "Point", "coordinates": [ 9.925933 , 50.3418 ] } },
{ "type": "Feature", "properties": { "type" : "earthcache", "GEOTOPNAME" : "Mainauen bei Ziegelanger", "NUMBER" : 85, "NAME": "Mainauen bei Ziegelanger", "CODE" : "GC40W1N"}, "geometry": { "type": "Point", "coordinates": [ 10.611167 , 49.9986 ] } },
{ "type": "Feature", "properties": { "type" : "earthcache", "GEOTOPNAME" : "Werksandsteinbruch Höchberg", "NUMBER" : 86, "NAME": "Werksandsteinbruch Höchberg", "CODE" : "GC2ARDW"}, "geometry": { "type": "Point", "coordinates": [ 9.860967 , 49.783733 ] } },
{ "type": "Feature", "properties": { "type" : "earthcache", "GEOTOPNAME" : "Sulzheimer Gipshügel", "NUMBER" : 87, "NAME": "Geotop ~Sulzheimer Gipshügel~", "CODE" : "GC2E826"}, "geometry": { "type": "Point", "coordinates": [ 10.317583 , 49.953 ] } },
{ "type": "Feature", "properties": { "type" : "earthcache", "GEOTOPNAME" : "Helvetikum bei Burgberg", "NUMBER" : 88, "NAME": "Helvetikum am Grünten", "CODE" : "GC2AB3G"}, "geometry": { "type": "Point", "coordinates": [ 10.2822 , 47.545633 ] } },
{ "type": "Feature", "properties": { "type" : "earthcache", "GEOTOPNAME" : "Granitzentrum in Hauzenberg", "NUMBER" : 89, "NAME": "Granitzentrum in Hauzenberg", "CODE" : "GC5MFPR"}, "geometry": { "type": "Point", "coordinates": [ 13.621783 , 48.647683 ] } },
{ "type": "Feature", "properties": { "type" : "earthcache", "GEOTOPNAME" : "Seltenbachschlucht bei Klingenberg am Main", "NUMBER" : 90, "NAME": "Bayerns schönste Geotope 90 - Seltenbachschlucht", "CODE" : "GC33R8T"}, "geometry": { "type": "Point", "coordinates": [ 9.187783 , 49.783533 ] } },
{ "type": "Feature", "properties": { "type" : "earthcache", "GEOTOPNAME" : "Bodenbildungen am Heusterzbühl", "NUMBER" : 91, "NAME": "Earthcache: Heusterzbühl", "CODE" : "GC2AGW7"}, "geometry": { "type": "Point", "coordinates": [ 12.267733 , 49.903317 ] } },
{ "type": "Feature", "properties": { "type" : "earthcache", "GEOTOPNAME" : "Marmorbruch Unterwappenöst", "NUMBER" : 92, "NAME": "GEOPARK Bayern-Böhmen: Marmorbruch Unterwappenöst", "CODE" : "GC3GD7W"}, "geometry": { "type": "Point", "coordinates": [ 11.924317 , 49.9109 ] } },
{ "type": "Feature", "properties": { "type" : "earthcache", "GEOTOPNAME" : "Fossiliengrube Mistelgau", "NUMBER" : 94, "NAME": "Fossiliengrube Mistelgau", "CODE" : "GC3GWCA"}, "geometry": { "type": "Point", "coordinates": [ 11.466167 , 49.904583 ] } },
{ "type": "Feature", "properties": { "type" : "earthcache", "GEOTOPNAME" : "Historische Steinbrüche Wernsbach", "NUMBER" : 95, "NAME": "Historische Steinbrüche Wernsbach", "CODE" : "GC2HETN"}, "geometry": { "type": "Point", "coordinates": [ 11.08225 , 49.17485 ] } },
{ "type": "Feature", "properties": { "type" : "earthcache", "GEOTOPNAME" : "Bogenberg", "NUMBER" : 96, "NAME": "Der Bogenberg", "CODE" : "GC2HKW8"}, "geometry": { "type": "Point", "coordinates": [ 12.695983 , 48.902167 ] } },
{ "type": "Feature", "properties": { "type" : "earthcache", "GEOTOPNAME" : "Schieferkohle am Uhlenberg", "NUMBER" : 97, "NAME": "Schwarzer Dreck", "CODE" : "GC2HGVV"}, "geometry": { "type": "Point", "coordinates": [ 10.6115 , 48.3698 ] } },
{ "type": "Feature", "properties": { "type" : "earthcache", "GEOTOPNAME" : "Saurierfährten Euerdorf", "NUMBER" : 98, "NAME": "Geotop Saurierfährten Euerdorf", "CODE" : "GC2XHBF"}, "geometry": { "type": "Point", "coordinates": [ 10.038867 , 50.1633 ] } },
{ "type": "Feature", "properties": { "type" : "earthcache", "GEOTOPNAME" : "Wackersdorfer Braunkohle", "NUMBER" : 99, "NAME": "Wackersdorfer Braunkohle", "CODE" : "GC319KA"}, "geometry": { "type": "Point", "coordinates": [ 12.17105 , 49.300683 ] } },
{ "type": "Feature", "properties": { "type" : "earthcache", "GEOTOPNAME" : "Watzmann-Ostwand mit Eiskapelle", "NUMBER" : 100, "NAME": "Eiskapelle", "CODE" : "GC1VY1D"}, "geometry": { "type": "Point", "coordinates": [ 12.939083 , 47.54295 ] } },
{ "type": "Feature", "properties": { "type" : "earthcache", "GEOTOPNAME" : "Basaltbruch am Lindenstumpf", "NUMBER" : 7, "NAME": "Basaltbruch am Lindenstumpf", "CODE" : "GC553RW"}, "geometry": { "type": "Point", "coordinates": [ 9.860117 , 50.278383 ] } },
{ "type": "Feature", "properties": { "type" : "earthcache", "GEOTOPNAME" : "Basaltbruch am Lindenstumpf", "NUMBER" : 7, "NAME": "Basaltflächer am Lindenstumpf", "CODE" : "GC5VVG4"}, "geometry": { "type": "Point", "coordinates": [ 9.860133 , 50.277417 ] } }
]     
}     
     
     
     
     
     
     
     
     
