{
"type": "FeatureCollection",
                                                                                
"features": [
{ "type": "Feature", "properties": { "GEOTOPNAME" : "Großer Pfahl bei Viechtach", "NUMBER" : 1, "NAME": "~Der Große Pfahl~ – Bavarian’s Geotope #1", "CODE" : "GC1G4MH" }, "geometry": { "type": "Point", "coordinates": [12.86276667,49.08216667] } },
{ "type": "Feature", "properties": { "GEOTOPNAME" : "Gletscherschliff bei Fischbach", "NUMBER" : 2, "NAME": "Der Gletscherschliff im Inntal", "CODE" : "GC1PN2K"}, "geometry": { "type": "Point", "coordinates": [12.15123333,47.71016667] } },
{ "type": "Feature", "properties": { "GEOTOPNAME" : "Burgstein bei Dollnstein", "NUMBER" : 3, "NAME": "Burgstein bei Dollnstein", "CODE" : "GC1QN4N"}, "geometry": { "type": "Point", "coordinates": [11.0934,48.86736667] }},
{ "type": "Feature", "properties": { "GEOTOPNAME" : "Burgberg Falkenberg", "NUMBER" : 4, "NAME": "Burg Falkenberg - Falkenberger Granit", "CODE" : "GC1YZMV"}, "geometry": { "type": "Point", "coordinates": [12.22481667,49.85906667] } 	},
{ "type": "Feature", "properties": { "GEOTOPNAME" : "Diabasbruch am Galgenberg", "NUMBER" : 5, "NAME": "Diabasbruch am Galgenberg", "CODE" : "GC22FVN"}, "geometry": { "type": "Point", "coordinates": [11.54345,50.27021667] }	},
{ "type": "Feature", "properties": { "GEOTOPNAME" : "Ehemaliger Steinbruch im Pingartener Porphyr", "NUMBER" : 6, "NAME": "Pingartener Porphyr", "CODE" : "GC1JMHD"}, "geometry": { "type": "Point", "coordinates": [12.32741667,49.3161] }},
{ "type": "Feature", "properties": { "GEOTOPNAME" : "Basaltbruch am Lindenstumpf", "NUMBER" : 7, "NAME": "Geotop Lindenstumpf", "CODE" : "GC195QR"}, "geometry": { "type": "Point", "coordinates": [9.860133333,50.27741667] }},
{ "type": "Feature", "properties": { "GEOTOPNAME" : "Lechfall und Klamm bei Füssen", "NUMBER" : 8, "NAME": "Geotop ~Lechfall~", "CODE" : "GC206D0"}, "geometry": { "type": "Point", "coordinates": [10.69515,47.56208333] }},
{ "type": "Feature", "properties": { "GEOTOPNAME" : "Steinbruch Aumühle", "NUMBER" : 9, "NAME": "Steinbruch Aumühle (The Ries Impact)", "CODE" : "GC30GG5"}, "geometry": { "type": "Point", "coordinates": [10.62943333,48.96983333] }},
{ "type": "Feature", "properties": { "GEOTOPNAME" : "Gipsbruch Endsee", "NUMBER" : 10, "NAME": "Gipsbruch Endsee", "CODE" : "GC2C1F3"}, "geometry": { "type": "Point", "coordinates": [10.24583333,49.44488333] }},
{ "type": "Feature", "properties": { "GEOTOPNAME" : "Sandsteinfelsen Nürnberger Kaiserburg", "NUMBER" : 11, "NAME": "Bayerns schönste Geotope Nr. 11 / Lovely Geotope", "CODE" : "GC1WRE9"}, "geometry": { "type": "Point", "coordinates": [11.0772,49.45758333] }},
{ "type": "Feature", "properties": { "GEOTOPNAME" : "Frickenhäuser See", "NUMBER" : 12, "NAME": "Frickenhäuser See", "CODE" : "GC1RHZT"}, "geometry": { "type": "Point", "coordinates": [10.23588333,50.40305] }},
{ "type": "Feature", "properties": { "GEOTOPNAME" : "Weltenburger Enge", "NUMBER" : 13, "NAME": "Weltenburger Enge", "CODE" : "GC1PQRD"}, "geometry": { "type": "Point", "coordinates": [11.82063333,48.8993] }},
{ "type": "Feature", "properties": { "GEOTOPNAME" : "Marmorsteinbruch Horwagen", "NUMBER" : 14, "NAME": "Marmorsteinbruch Horwagen", "CODE" : "GC21N9Z"}, "geometry": { "type": "Point", "coordinates": [11.6475,50.3358] }},
{ "type": "Feature", "properties": { "GEOTOPNAME" : "Findling Dengelstein", "NUMBER" : 15, "NAME": "Findling / Erratic block Dengelstein", "CODE" : "GC20X0Y"}, "geometry": { "type": "Point", "coordinates": [10.40651667,47.71043333] }},
{ "type": "Feature", "properties": { "GEOTOPNAME" : "Partnachklamm", "NUMBER" : 16, "NAME": "Die Partnachklamm / The Partnach Gorge", "CODE" : "GC1WYTT"}, "geometry": { "type": "Point", "coordinates": [11.11911667,47.46951667] }},
{ "type": "Feature", "properties": { "GEOTOPNAME" : "Silberberg Bodenmais", "NUMBER" : 17, "NAME": "Geotop Silberberg", "CODE" : "GC23JPQ"}, "geometry": { "type": "Point", "coordinates": [13.12183333,49.05846667] }},
{ "type": "Feature", "properties": { "GEOTOPNAME" : "Klettergarten Baierbrunn", "NUMBER" : 18, "NAME": "Kletterwand Baierbrunn", "CODE" : "GC20FN9"}, "geometry": { "type": "Point", "coordinates": [11.49946667,48.02876667] }},
{ "type": "Feature", "properties": { "GEOTOPNAME" : "Wachsender Felsen von Usterling", "NUMBER" : 19, "NAME": "The Growing Rock of Usterling", "CODE" : "GC1RK2W"}, "geometry": { "type": "Point", "coordinates": [12.64895,48.66296667] }},
{ "type": "Feature", "properties": { "GEOTOPNAME" : "Basaltkegel Hoher Parkstein", "NUMBER" : 20, "NAME": "Hoher Parkstein", "CODE" : "GC1WK3T"}, "geometry": { "type": "Point", "coordinates": [12.07061667,49.73133333] }},
{ "type": "Feature", "properties": { "GEOTOPNAME" : "Oertels Dachschieferbruch", "NUMBER" : 21, "NAME": "Oertels Dachschieferbruch ", "CODE" : "GC1RY4Q"}, "geometry": { "type": "Point", "coordinates": [11.37265,50.48321667] }},
{ "type": "Feature", "properties": { "GEOTOPNAME" : "Schwarzachschlucht", "NUMBER" : 22, "NAME": "Die Schwarzachschlucht", "CODE" : "GC1Q1V4"}, "geometry": { "type": "Point", "coordinates": [11.20655,49.35485] }},
{ "type": "Feature", "properties": { "GEOTOPNAME" : "Kupferbergwerk Wilhelmine", "NUMBER" : 23, "NAME": "Schöne Wilhelmine", "CODE" : "GC1X32T"}, "geometry": { "type": "Point", "coordinates": [9.272583333,50.06898333] }},
{ "type": "Feature", "properties": { "GEOTOPNAME" : "Scheidegger Wasserfälle", "NUMBER" : 24, "NAME": "Die Scheidegger Wasserfälle", "CODE" : "GC1YTY7"}, "geometry": { "type": "Point", "coordinates": [9.839216667,47.5919] }},
{ "type": "Feature", "properties": { "GEOTOPNAME" : "Steinerne Agnes", "NUMBER" : 25, "NAME": "Steinerne Agnes Stone/Petrified Agnes", "CODE" : "GC1RCCR"}, "geometry": { "type": "Point", "coordinates": [12.90905,47.6861] }},
{ "type": "Feature", "properties": { "GEOTOPNAME" : "Buchberger Leite am Bayerischen Pfahl", "NUMBER" : 26, "NAME": "Buchberger Leite - Ringelaier Hängebrücke & Pfahl", "CODE" : "GC1WW3G"}, "geometry": { "type": "Point", "coordinates": [13.51325,48.82061667] }},
{ "type": "Feature", "properties": { "GEOTOPNAME" : "Luisenburg-Felsenlabyrinth", "NUMBER" : 27, "NAME": "Felsenlabyrinth Luisenburg", "CODE" : "GC1ZTX9"}, "geometry": { "type": "Point", "coordinates": [11.9913,50.01226667] }},
{ "type": "Feature", "properties": { "GEOTOPNAME" : "Hesselberg", "NUMBER" : 28, "NAME": "Mittelfranken's Höchster", "CODE" : "GC4YAT2"}, "geometry": { "type": "Point", "coordinates": [10.52616667,49.06856667] }},
{ "type": "Feature", "properties": { "GEOTOPNAME" : "Felsburg Tüchersfeld", "NUMBER" : 29, "NAME": "Felsburg Tüchersfeld", "CODE" : "GC22ZAG"}, "geometry": { "type": "Point", "coordinates": [11.36201667,49.78475] }},
{ "type": "Feature", "properties": { "GEOTOPNAME" : "Impaktgesteine Wengenhausen", "NUMBER" : 30, "NAME": "Impaktdiamanten", "CODE" : "GC4QTR1"}, "geometry": { "type": "Point", "coordinates": [10.46278333,48.91101667] }},
{ "type": "Feature", "properties": { "GEOTOPNAME" : "Breitachklamm", "NUMBER" : 31, "NAME": "Der grosse Zwing", "CODE" : "GC1VKGD"}, "geometry": { "type": "Point", "coordinates": [10.23105,47.40131667] }},
{ "type": "Feature", "properties": { "GEOTOPNAME" : "Blockmeer am Lusen", "NUMBER" : 32, "NAME": "Das Blockmeer am Lusengipfel", "CODE" : "GC2E38V"}, "geometry": { "type": "Point", "coordinates": [13.50736667,48.93788333] }},
{ "type": "Feature", "properties": { "GEOTOPNAME" : "Eiszerfallslandschaft Osterseen", "NUMBER" : 33, "NAME": "Osterseen", "CODE" : "GC4CZYE"}, "geometry": { "type": "Point", "coordinates": [11.3143,47.77278333] }},
{ "type": "Feature", "properties": { "GEOTOPNAME" : "Karlsgraben", "NUMBER" : 34, "NAME": "Karlsgraben", "CODE" : "GC1XGJQ"}, "geometry": { "type": "Point", "coordinates": [10.92205,48.98385] }},
{ "type": "Feature", "properties": { "GEOTOPNAME" : "Muschelkalkprofil Kalbenstein", "NUMBER" : 35, "NAME": "Muschelkalkprofil Kalbenstein", "CODE" : "GC1XDYT"}, "geometry": { "type": "Point", "coordinates": [9.762683333,49.99026667] }},
{ "type": "Feature", "properties": { "GEOTOPNAME" : "Kreuzberg in Pleystein", "NUMBER" : 36, "NAME": "Pleystein", "CODE" : "GC16PRM"}, "geometry": { "type": "Point", "coordinates": [12.41203333,49.64593333] }},
{ "type": "Feature", "properties": { "GEOTOPNAME" : "Toteisloch Wolfsgrube", "NUMBER" : 37, "NAME": "Toteisloch Wolfsgrube", "CODE" : "GC39YZ7"}, "geometry": { "type": "Point", "coordinates": [11.16951667,48.12721667] }},
{ "type": "Feature", "properties": { "GEOTOPNAME" : "Ofnethöhlen", "NUMBER" : 38, "NAME": "Geotop Nr. 38 Ofnethöhlen", "CODE" : "GC1ZTH4"}, "geometry": { "type": "Point", "coordinates": [10.45043333,48.81846667] }},
{ "type": "Feature", "properties": { "GEOTOPNAME" : "Eklogit am Weißenstein", "NUMBER" : 39, "NAME": "Eklogit am Weißenstein", "CODE" : "GC22FTR"}, "geometry": { "type": "Point", "coordinates": [11.6902,50.1299] }},
{ "type": "Feature", "properties": { "GEOTOPNAME" : "Gipskarstquelle Bodenloses Loch", "NUMBER" : 40, "NAME": "Gipskarstquelle Bodenloses Loch", "CODE" : "GC2D3Y8"}, "geometry": { "type": "Point", "coordinates": [10.1959,49.28751667] }},
{ "type": "Feature", "properties": { "GEOTOPNAME" : "Steinerne Frau am Walberla", "NUMBER" : 41, "NAME": "Steinerne Frau am Walberla", "CODE" : "GC1T5HG"}, "geometry": { "type": "Point", "coordinates": [11.1496,49.72151667] }},
{ "type": "Feature", "properties": { "GEOTOPNAME" : "Findling von Steinwies", "NUMBER" : 42, "NAME": "Findling von Steinwies - Glacial Erratic Boulder", "CODE" : "GC1PPP3"}, "geometry": { "type": "Point", "coordinates": [11.93545,47.8097] }},
{ "type": "Feature", "properties": { "GEOTOPNAME" : "Teufelsküche Obergünzburg", "NUMBER" : 43, "NAME": "Teufelsküche / Hell's Kitchen Obergünzburg", "CODE" : "GC20CRE"}, "geometry": { "type": "Point", "coordinates": [10.41486667,47.87405] }},
{ "type": "Feature", "properties": { "GEOTOPNAME" : "Burgruine Rotenhan", "NUMBER" : 44, "NAME": "Rotenhan", "CODE" : "GC1VNWA"}, "geometry": { "type": "Point", "coordinates": [10.79185,50.11411667] }},
{ "type": "Feature", "properties": { "GEOTOPNAME" : "Bodenmühlwand", "NUMBER" : 45, "NAME": "Bodenmühlwand", "CODE" : "GC1A3AG"}, "geometry": { "type": "Point", "coordinates": [11.61645,49.91245] }},
{ "type": "Feature", "properties": { "GEOTOPNAME" : "Zauberwald Ramsau", "NUMBER" : 46, "NAME": "The Magic Forest", "CODE" : "GC1Q1N2"}, "geometry": { "type": "Point", "coordinates": [12.85383333,47.6088] }},
{ "type": "Feature", "properties": { "GEOTOPNAME" : "Schwarzes Moor", "NUMBER" : 47, "NAME": "The Black Moor", "CODE" : "GC1R1BN"}, "geometry": { "type": "Point", "coordinates": [10.07003333,50.52218333] }},
{ "type": "Feature", "properties": { "GEOTOPNAME" : "Molasseprofil Eistobel", "NUMBER" : 48, "NAME": "Eistobel", "CODE" : "GC20DTJ"}, "geometry": { "type": "Point", "coordinates": [10.03206667,47.63575] }},
{ "type": "Feature", "properties": { "GEOTOPNAME" : "Großer Lochstein", "NUMBER" : 49, "NAME": "Großer Lochstein", "CODE" : "GC21N76"}, "geometry": { "type": "Point", "coordinates": [11.52426667,49.7145] }},
{ "type": "Feature", "properties": { "GEOTOPNAME" : "Serpentinit-Härtling am Föhrenbühl", "NUMBER" : 50, "NAME": "Föhrenbühl", "CODE" : "GC24KFQ"}, "geometry": { "type": "Point", "coordinates": [12.02848333,49.85696667] }},
{ "type": "Feature", "properties": { "GEOTOPNAME" : "Malmschichten am Arzberg", "NUMBER" : 51, "NAME": "Malmschichten am Arzberg", "CODE" : "GC1W9VV"}, "geometry": { "type": "Point", "coordinates": [11.5395,49.01938333] }},
{ "type": "Feature", "properties": { "GEOTOPNAME" : "Mühlsteinbruch Hinterhör", "NUMBER" : 52, "NAME": "Mühlsteinbruch / Millstone Quarry Hinterhör", "CODE" : "GC218GN"}, "geometry": { "type": "Point", "coordinates": [12.15636667,47.7781] }},
{ "type": "Feature", "properties": { "GEOTOPNAME" : "Blockstrom Kaser Steinstuben", "NUMBER" : 53, "NAME": "Kaser Steinstuben / Kaser Stone Rooms", "CODE" : "GC21VP6"}, "geometry": { "type": "Point", "coordinates": [12.99931667,48.37646667] }},
{ "type": "Feature", "properties": { "GEOTOPNAME" : "Drei-Brüder-Felsen", "NUMBER" : 54, "NAME": "Drei Brüder Felsen", "CODE" : "GC21N77"}, "geometry": { "type": "Point", "coordinates": [11.87178333,50.06925] }},
{ "type": "Feature", "properties": { "GEOTOPNAME" : "Peitinger Pechkohle", "NUMBER" : 55, "NAME": "Pechkohle/Bituminous coal - Peiting", "CODE" : "GC1Y451" }, "geometry": { "type": "Point", "coordinates": [10.95506667,47.78788333] }},
{ "type": "Feature", "properties": { "GEOTOPNAME" : "Peitinger Pechkohle", "NUMBER" : 55, "NAME": "Peitinger Pechkohle", "CODE" : "GC1Y451", "archived" : true }, "geometry": { "type": "Point", "coordinates": [10.95506667,47.78788333] }},
{ "type": "Feature", "properties": { "GEOTOPNAME" : "Schutzfelsen Pentling", "NUMBER" : 56, "NAME": "Schutzfelsen Pentling", "CODE" : "GC1YG4X" }, "geometry": { "type": "Point", "coordinates": [12.04631667,48.99223333] }},
{ "type": "Feature", "properties": { "GEOTOPNAME" : "Schichtstufen am Schwanberg", "NUMBER" : 57, "NAME": "Keuper-Schichtstufe am Schwanberg", "CODE" : "GC1Y2TF"}, "geometry": { "type": "Point", "coordinates": [10.27408333,49.71475] }},
{ "type": "Feature", "properties": { "GEOTOPNAME" : "Granite am Dreisessel", "NUMBER" : 58, "NAME": "Verwitterung am Dreisesselfels", "CODE" : "GC24CHQ"}, "geometry": { "type": "Point", "coordinates": [13.80368333,48.78093333] }},
{ "type": "Feature", "properties": { "GEOTOPNAME" : "Glimmerschiefer am Osser", "NUMBER" : 59, "NAME": "Glimmerschiefer am Osser", "CODE" : "GC1YTWR"}, "geometry": { "type": "Point", "coordinates": [13.10968333,49.203] }},
{ "type": "Feature", "properties": { "GEOTOPNAME" : "Wellheimer Trockental", "NUMBER" : 60, "NAME": "Wellheimer Trockental", "CODE" : "GC234MT"}, "geometry": { "type": "Point", "coordinates": [11.0841,48.82885] }},
{ "type": "Feature", "properties": { "GEOTOPNAME" : "Höhlenruine Riesenburg", "NUMBER" : 61, "NAME": "Versturzhöhle Riesenburg", "CODE" : "GC1YTTV"}, "geometry": { "type": "Point", "coordinates": [11.29665,49.80366667] }},
{ "type": "Feature", "properties": { "GEOTOPNAME" : "Zwölf-Apostel-Felsen", "NUMBER" : 62, "NAME": "12 Apostel im Altmühltal", "CODE" : "GC1RZK2"}, "geometry": { "type": "Point", "coordinates": [11.01141667,48.8925] }},
{ "type": "Feature", "properties": { "GEOTOPNAME" : "Riesseekalke Hainsfarth", "NUMBER" : 63, "NAME": "Bayerns Geotope 63 - Riesseekalke Hainsfarth", "CODE" : "GC22YEM"}, "geometry": { "type": "Point", "coordinates": [10.63245,48.95523333] }},
{ "type": "Feature", "properties": { "GEOTOPNAME" : "Steinachklamm", "NUMBER" : 64, "NAME": "Geotop Nr. 64 Steinachklamm", "CODE" : "GC22M5W"}, "geometry": { "type": "Point", "coordinates": [11.55633333,50.19358333] }},
{ "type": "Feature", "properties": { "GEOTOPNAME" : "Kaolingruben bei Hirschau-Schnaittenbach", "NUMBER" : 65, "NAME": "Kaolingruben", "CODE" : "GC1VXKT"}, "geometry": { "type": "Point", "coordinates": [11.95328333,49.53546667] }},
{ "type": "Feature", "properties": { "GEOTOPNAME" : "Tertiärwelt Aubenham", "NUMBER" : 66, "NAME": "Die tertiärwelten Aubenham", "CODE" : "GC24G1N"}, "geometry": { "type": "Point", "coordinates": [12.38118333,48.30541667] }},
{ "type": "Feature", "properties": { "GEOTOPNAME" : "Stockheimer Steinkohle", "NUMBER" : 67, "NAME": "Stockheimer Steinkohle", "CODE" : "GC22C8Q"}, "geometry": { "type": "Point", "coordinates": [11.27215,50.31093333] }},
{ "type": "Feature", "properties": { "GEOTOPNAME" : "Buckelwiesen bei Mittenwald", "NUMBER" : 68, "NAME": "Buckelwiesen bei Mittenwald", "CODE" : "GC25FHE"}, "geometry": { "type": "Point", "coordinates": [11.26956667,47.47073333] }},
{ "type": "Feature", "properties": { "GEOTOPNAME" : "Doggerfelswand Niederhofen", "NUMBER" : 69, "NAME": "Doggerfelswand Niederhofen", "CODE" : "GC1WAMG"}, "geometry": { "type": "Point", "coordinates": [11.578,49.29216667] }},
{ "type": "Feature", "properties": { "GEOTOPNAME" : "Flysch im Röthenbachtal", "NUMBER" : 70, "NAME": "Flysch im Röthenbachtal", "CODE" : "GC31HHE"}, "geometry": { "type": "Point", "coordinates": [10.85935,47.61221667] }},
{ "type": "Feature", "properties": { "GEOTOPNAME" : "Fossilfundstelle Solnhofener Plattenkalke", "NUMBER" : 71, "NAME": "Solnhofener Plattenkalk", "CODE" : "GC1QD69"}, "geometry": { "type": "Point", "coordinates": [10.96138333,48.88941667] }},
{ "type": "Feature", "properties": { "GEOTOPNAME" : "Volkacher Mainschleife", "NUMBER" : 72, "NAME": "Volkacher Mainschleife", "CODE" : "GC1RY5A"}, "geometry": { "type": "Point", "coordinates": [10.18296667,49.86665] }},
{ "type": "Feature", "properties": { "GEOTOPNAME" : "Schlossberg Flossenbürg", "NUMBER" : 73, "NAME": "Flossenbürger Granit", "CODE" : "GC20EJH"}, "geometry": { "type": "Point", "coordinates": [12.34265,49.73395] }},
{ "type": "Feature", "properties": { "GEOTOPNAME" : "Juraprofil Staffelberg", "NUMBER" : 74, "NAME": "Juraprofil Staffelberg", "CODE" : "GC218H2"}, "geometry": { "type": "Point", "coordinates": [11.02613333,50.09295] }},
{ "type": "Feature", "properties": { "GEOTOPNAME" : "Kreidetransgression Obertrübenbach", "NUMBER" : 75, "NAME": "Geotop Obertrübenbach", "CODE" : "GC1YRNW"}, "geometry": { "type": "Point", "coordinates": [12.5466,49.16496667] }},
{ "type": "Feature", "properties": { "GEOTOPNAME" : "Ammergauer Wetzsteinbrüche", "NUMBER" : 76, "NAME": "Schleifmühlklamm mit ehemaligen Wetzsteinbrüchen", "CODE" : "GC57547"}, "geometry": { "type": "Point", "coordinates": [11.01668333,47.60585] }},
{ "type": "Feature", "properties": { "GEOTOPNAME" : "Nagelfluh am Hochgrat", "NUMBER" : 77 }, "geometry": { "type": "Point", "coordinates": [10.07326667,47.49321667] }},
{ "type": "Feature", "properties": { "GEOTOPNAME" : "Sanddüne Seeholz Abensberg", "NUMBER" : 78, "NAME": "Geotop Sanddüne", "CODE" : "GC20FTW"}, "geometry": { "type": "Point", "coordinates": [11.88466667,48.81496667] }},
{ "type": "Feature", "properties": { "GEOTOPNAME" : "Ruhpoldinger Marmor", "NUMBER" : 79, "NAME": "Ruhpoldinger Marmor", "CODE" : "GC1QC2C"}, "geometry": { "type": "Point", "coordinates": [12.62831667,47.74898333] }},
{ "type": "Feature", "properties": { "GEOTOPNAME" : "Gneis am Hochfels", "NUMBER" : 80, "NAME": "Gneis am Hochfels", "CODE" : "GC1YZFJ"}, "geometry": { "type": "Point", "coordinates": [12.61738333,49.50755] }},
{ "type": "Feature", "properties": { "GEOTOPNAME" : "Röslauschlucht Gsteinigt", "NUMBER" : 81, "NAME": "Earthcache: G'steinigt", "CODE" : "GC22YK9"}, "geometry": { "type": "Point", "coordinates": [12.18061667,50.05303333] }},
{ "type": "Feature", "properties": { "GEOTOPNAME" : "Geologische Orgeln Oberschroffen", "NUMBER" : 82, "NAME": "Geological Organ Pipes", "CODE" : "GC1XQDJ"}, "geometry": { "type": "Point", "coordinates": [12.64705,48.154] }},
{ "type": "Feature", "properties": { "GEOTOPNAME" : "Quaderkalkbruch Kleinochsenfurt", "NUMBER" : 83, "NAME": "Quaderkalkbruch Kleinochsenfurt", "CODE" : "GC29KTT"}, "geometry": { "type": "Point", "coordinates": [10.03985,49.68156667] }},
{ "type": "Feature", "properties": { "GEOTOPNAME" : "Vulkankrater Gebirgsstein", "NUMBER" : 84, "NAME": "Vulkankrater Gebirgsstein", "CODE" : "GC20FP4"}, "geometry": { "type": "Point", "coordinates": [9.925983333,50.34226667] }},
{ "type": "Feature", "properties": { "GEOTOPNAME" : "Mainauen bei Ziegelanger", "NUMBER" : 85, "NAME": "Mainauen bei Ziegelanger", "CODE" : "GC40W1N"}, "geometry": { "type": "Point", "coordinates": [10.61116667,49.9986] }},
{ "type": "Feature", "properties": { "GEOTOPNAME" : "Werksandsteinbruch Höchberg", "NUMBER" : 86, "NAME": "Werksandsteinbruch Höchberg", "CODE" : "GC2ARDW"}, "geometry": { "type": "Point", "coordinates": [9.860916667,49.78366667] }},
{ "type": "Feature", "properties": { "GEOTOPNAME" : "Sulzheimer Gipshügel", "NUMBER" : 87, "NAME": "Geotop ~Sulzheimer Gipshügel~", "CODE" : "GC2E826"}, "geometry": { "type": "Point", "coordinates": [10.31753333,49.95303333] }},
{ "type": "Feature", "properties": { "GEOTOPNAME" : "Helvetikum bei Burgberg", "NUMBER" : 88, "NAME": "Helvetikum am Grünten", "CODE" : "GC2AB3G"}, "geometry": { "type": "Point", "coordinates": [10.28231667,47.54556667] }},
{ "type": "Feature", "properties": { "GEOTOPNAME" : "Granitzentrum in Hauzenberg", "NUMBER" : 89, "NAME": "Granitzentrum in Hauzenberg", "CODE" : "GC5MFPR"}, "geometry": { "type": "Point", "coordinates": [13.62176667,48.64763333] }},
{ "type": "Feature", "properties": { "GEOTOPNAME" : "Seltenbachschlucht bei Klingenberg am Main", "NUMBER" : 90, "NAME": "Bayerns schönste Geotope 90 - Seltenbachschlucht", "CODE" : "GC33R8T"}, "geometry": { "type": "Point", "coordinates": [9.187716667,49.78353333] }},
{ "type": "Feature", "properties": { "GEOTOPNAME" : "Bodenbildungen am Heusterzbühl", "NUMBER" : 91, "NAME": "Earthcache: Heusterzbühl", "CODE" : "GC2AGW7"}, "geometry": { "type": "Point", "coordinates": [12.26788333,49.90331667] }},
{ "type": "Feature", "properties": { "GEOTOPNAME" : "Marmorbruch Unterwappenöst", "NUMBER" : 92, "NAME": "GEOPARK Bayern-Böhmen: Marmorbruch Unterwappenöst", "CODE" : "GC3GD7W"}, "geometry": { "type": "Point", "coordinates": [11.92431667,49.9109] }},
{ "type": "Feature", "properties": { "GEOTOPNAME" : "Wildflusslandschaft Isartal", "NUMBER" : 93 }, "geometry": { "type": "Point", "coordinates": [11.35635,47.54263333] }},
{ "type": "Feature", "properties": { "GEOTOPNAME" : "Fossiliengrube Mistelgau", "NUMBER" : 94, "NAME": "Fossiliengrube Mistelgau", "CODE" : "GC3GWCA"}, "geometry": { "type": "Point", "coordinates": [11.46613333,49.90493333] }},
{ "type": "Feature", "properties": { "GEOTOPNAME" : "Historische Steinbrüche Wernsbach", "NUMBER" : 95, "NAME": "Historische Steinbrüche Wernsbach", "CODE" : "GC2HETN"}, "geometry": { "type": "Point", "coordinates": [11.0837,49.17475] }},
{ "type": "Feature", "properties": { "GEOTOPNAME" : "Bogenberg", "NUMBER" : 96, "NAME": "Der Bogenberg", "CODE" : "GC2HKW8"}, "geometry": { "type": "Point", "coordinates": [12.69596667,48.90225] }},
{ "type": "Feature", "properties": { "GEOTOPNAME" : "Schieferkohle am Uhlenberg", "NUMBER" : 97, "NAME": "Schwarzer Dreck", "CODE" : "GC2HGVV"}, "geometry": { "type": "Point", "coordinates": [10.61165,48.36991667] }},
{ "type": "Feature", "properties": { "GEOTOPNAME" : "Saurierfährten Euerdorf", "NUMBER" : 98, "NAME": "Geotop Saurierfährten Euerdorf", "CODE" : "GC2XHBF"}, "geometry": { "type": "Point", "coordinates": [10.0389,50.16328333] }},
{ "type": "Feature", "properties": { "GEOTOPNAME" : "Wackersdorfer Braunkohle", "NUMBER" : 99, "NAME": "Wackersdorfer Braunkohle", "CODE" : "GC319KA"}, "geometry": { "type": "Point", "coordinates": [12.17096667,49.3007] }},
{ "type": "Feature", "properties": { "GEOTOPNAME" : "Watzmann-Ostwand mit Eiskapelle", "NUMBER" : 100, "NAME": "Eiskapelle", "CODE" : "GC1VY1D"}, "geometry": { "type": "Point", "coordinates": [12.97025,47.54546667] }}
]
}
